[
    {
        "box": false, 
        "vehicle": "BICYCLE", 
        "location": {
            "lat": 41.39980694963036, 
            "lon": 2.1829698538474984
        }, 
        "id": "courier-9c791db2ead9", 
        "name": "Arica Starck"
    }, 
    {
        "box": true, 
        "vehicle": "ELECTRIC_SCOOTER", 
        "location": {
            "lat": 41.40668166914191, 
            "lon": 2.1794396752388514
        }, 
        "id": "courier-b0f1b826d868", 
        "name": "Audie Merideth"
    }, 
    {
        "box": true, 
        "vehicle": "ELECTRIC_SCOOTER", 
        "location": {
            "lat": 41.39636718790941, 
            "lon": 2.1611637818740297
        }, 
        "id": "courier-33a8fe96817f", 
        "name": "Shandra Palomba"
    }, 
    {
        "box": false, 
        "vehicle": "MOTORCYCLE", 
        "location": {
            "lat": 41.40638606893252, 
            "lon": 2.171794089603749
        }, 
        "id": "courier-4ab4ce03951c", 
        "name": "Daron Reinhold"
    }, 
    {
        "box": true, 
        "vehicle": "MOTORCYCLE", 
        "location": {
            "lat": 41.387646018597835, 
            "lon": 2.166255699226159
        }, 
        "id": "courier-4d819954b62d", 
        "name": "Deetta Zabala"
    }, 
    {
        "box": false, 
        "vehicle": "MOTORCYCLE", 
        "location": {
            "lat": 41.39267394624044, 
            "lon": 2.16265389480811
        }, 
        "id": "courier-2918f28800f7", 
        "name": "Tangela Monier"
    }, 
    {
        "box": true, 
        "vehicle": "BICYCLE", 
        "location": {
            "lat": 41.38128389875409, 
            "lon": 2.1844937085427016
        }, 
        "id": "courier-31c0b957f89b", 
        "name": "Nicolasa Frizell"
    }, 
    {
        "box": true, 
        "vehicle": "ELECTRIC_SCOOTER", 
        "location": {
            "lat": 41.40326305775291, 
            "lon": 2.166303479650074
        }, 
        "id": "courier-f11313d975d6", 
        "name": "Amanda Kinloch"
    }, 
    {
        "box": false, 
        "vehicle": "BICYCLE", 
        "location": {
            "lat": 41.38354150356005, 
            "lon": 2.1858613899870316
        }, 
        "id": "courier-6dfd0ba53155", 
        "name": "Tiny Zabala"
    }, 
    {
        "box": false, 
        "vehicle": "MOTORCYCLE", 
        "location": {
            "lat": 41.394639148276276, 
            "lon": 2.1842700128534154
        }, 
        "id": "courier-cf9d48dc2924", 
        "name": "Shandra Starck"
    }, 
    {
        "box": false, 
        "vehicle": "ELECTRIC_SCOOTER", 
        "location": {
            "lat": 41.38799904631816, 
            "lon": 2.1798751097762077
        }, 
        "id": "courier-23862ab6f863", 
        "name": "Valorie Ohl"
    }, 
    {
        "box": true, 
        "vehicle": "BICYCLE", 
        "location": {
            "lat": 41.405189244390904, 
            "lon": 2.1761199823390345
        }, 
        "id": "courier-b57c3a1daa7c", 
        "name": "Libby Merideth"
    }, 
    {
        "box": true, 
        "vehicle": "BICYCLE", 
        "location": {
            "lat": 41.38591627642284, 
            "lon": 2.1744773184511375
        }, 
        "id": "courier-f8fef889cce8", 
        "name": "Lucile Merideth"
    }, 
    {
        "box": false, 
        "vehicle": "ELECTRIC_SCOOTER", 
        "location": {
            "lat": 41.40733033606249, 
            "lon": 2.1762614145360963
        }, 
        "id": "courier-05cee9c488e7", 
        "name": "Kaci Reinhold"
    }, 
    {
        "box": false, 
        "vehicle": "BICYCLE", 
        "location": {
            "lat": 41.399356599484534, 
            "lon": 2.1775821237448723
        }, 
        "id": "courier-84a9fae7584f", 
        "name": "Lorena Dowling"
    }, 
    {
        "box": false, 
        "vehicle": "BICYCLE", 
        "location": {
            "lat": 41.38604417769787, 
            "lon": 2.168839426123942
        }, 
        "id": "courier-a87cf1347750", 
        "name": "Carolyn Damiano"
    }, 
    {
        "box": false, 
        "vehicle": "MOTORCYCLE", 
        "location": {
            "lat": 41.381394289334004, 
            "lon": 2.17767837215262
        }, 
        "id": "courier-b47b81f6797a", 
        "name": "Keli Andre"
    }, 
    {
        "box": true, 
        "vehicle": "MOTORCYCLE", 
        "location": {
            "lat": 41.393946178537014, 
            "lon": 2.1812019012983592
        }, 
        "id": "courier-a2ab46a636a7", 
        "name": "Shandra Mcafee"
    }, 
    {
        "box": true, 
        "vehicle": "ELECTRIC_SCOOTER", 
        "location": {
            "lat": 41.38110106570174, 
            "lon": 2.176044045905579
        }, 
        "id": "courier-65f2db26149b", 
        "name": "Britney Golson"
    }, 
    {
        "box": true, 
        "vehicle": "BICYCLE", 
        "location": {
            "lat": 41.39486630744662, 
            "lon": 2.168202327058065
        }, 
        "id": "courier-983c46aab53e", 
        "name": "Aurora Ledger"
    }
]